  {
    "plates": [
      {
        "kz": "AA",
        "name": "Aalen",
        "geometry": {
          "type": "Point",
          "coordinates": [
            48.8366887,
            10.0971163
          ]
        }
      },
      {
        "kz": "AC",
        "name": "Aachen",
        "geometry": {
          "type": "Point",
          "coordinates": [
            50.7753455,
            6.0838868
          ]
        }
      },
      {
        "kz": "AG (CH)",
        "name": "Aargau",
        "geometry": {
          "type": "Point",
          "coordinates": [
            47.403182,
            8.084340
          ]
        }
      },
      {
        "kz": "AH",
        "name": "Ahaus",
        "geometry": {
          "type": "Point",
          "coordinates": [
            52.0825322,
            7.0150057
          ]
        }
      },
      {
        "kz": "AIB",
        "name": "Bad Aibling",
        "geometry": {
          "type": "Point",
          "coordinates": [
            47.8640182,
            12.0093171
          ]
        }
      },
      {
        "kz": "AK",
        "name": "Altenkirchen",
        "geometry": {
          "type": "Point",
          "coordinates": [
            50.687222,
            7.645556
          ]
        }
      },
      {
        "kz": "AUR",
        "name": "Aurich",
        "geometry": {
          "type": "Point",
          "coordinates": [
            53.4708393,
            7.4848308
          ]
        }
      },
      {
        "kz": "AW",
        "name": "Ahrweiler",
        "geometry": {
          "type": "Point",
          "coordinates": [
            50.541815,
            7.1197177
          ]
        }
      },
      {
        "kz": "AZ",
        "name": "Alzey",
        "geometry": {
          "type": "Point",
          "coordinates": [
            49.7462012,
            8.1171135
          ]
        }
      },
      {
        "kz": "B",
        "name": "Berlin",
        "geometry": {
          "type": "Point",
          "coordinates": [
            52.520007,
            13.404954
          ]
        }
      },
      {
        "kz": "B (Belgien)",
        "name": "Keine Zuordnung mittels Kennzeichen",
        "geometry": {
          "type": "Point",
          "coordinates": [
            50.506213,
            4.476049
          ]
        }
      },
      {
        "kz": "BA",
        "name": "Bamberg",
        "geometry": {
          "type": "Point",
          "coordinates": [
            49.8988135,
            10.9027636
          ]
        }
      },
      {
        "kz": "BAR",
        "name": "Barnim",
        "geometry": {
          "type": "Point",
          "coordinates": [
            52.857445,
            13.699830
          ]
        }
      },
      {
        "kz": "BCH",
        "name": "Buchen (ODW.)",
        "geometry": {
          "type": "Point",
          "coordinates": [
            49.521667,
            9.323333
          ]
        }
      },
      {
        "kz": "BE (CH)",
        "name": "Bern",
        "geometry": {
          "type": "Point",
          "coordinates": [
            46.947922,
            7.444608
          ]
        }
      },
      {
        "kz": "BI",
        "name": "Bielefeld",
        "geometry": {
          "type": "Point",
          "coordinates": [
            52.0302285,
            8.5324708
          ]
        }
      },
      {
        "kz": "BIN",
        "name": "Bingen am Rhein",
        "geometry": {
          "type": "Point",
          "coordinates": [
            49.9667396,
            7.904596
          ]
        }
      },
      {
        "kz": "BM",
        "name": "Bergheim",
        "geometry": {
          "type": "Point",
          "coordinates": [
            50.9451945,
            6.6555022
          ]
        }
      },
      {
        "kz": "BN (AT)",
        "name": "Baden",
        "geometry": {
          "type": "Point",
          "coordinates": [
            48.002870,
            16.265988
          ]
        }
      },
      {
        "kz": "BOR",
        "name": "Borken",
        "geometry": {
          "type": "Point",
          "coordinates": [
            51.8482714,
            6.8594477
          ]
        }
      },
      {
        "kz": "BRA",
        "name": "Brake",
        "geometry": {
          "type": "Point",
          "coordinates": [
            53.327237,
            8.4775443
          ]
        }
      },
      {
        "kz": "BS",
        "name": "Braunschweig",
        "geometry": {
          "type": "Point",
          "coordinates": [
            52.2688736,
            10.5267696
          ]
        }
      },
      {
        "kz": "BÜD",
        "name": "Büdingen",
        "geometry": {
          "type": "Point",
          "coordinates": [
            50.2862963,
            9.1113838
          ]
        }
      },
      {
        "kz": "BÜR",
        "name": "Büren",
        "geometry": {
          "type": "Point",
          "coordinates": [
            51.55092,
            8.5597678
          ]
        }
      },
      {
        "kz": "CAS",
        "name": "Castrop-Rauxel",
        "geometry": {
          "type": "Point",
          "coordinates": [
            51.5632625,
            7.3150145
          ]
        }
      },
      {
        "kz": "CE",
        "name": "Celle",
        "geometry": {
          "type": "Point",
          "coordinates": [
            52.6175963,
            10.0628515
          ]
        }
      },
      {
        "kz": "COE",
        "name": "Coesfeld",
        "geometry": {
          "type": "Point",
          "coordinates": [
            51.9382944,
            7.1675831
          ]
        }
      },
      {
        "kz": "CR",
        "name": "Crailsheim",
        "geometry": {
          "type": "Point",
          "coordinates": [
            49.1337354,
            10.0633573
          ]
        }
      },
      {
        "kz": "CUX",
        "name": "Cuxhaven",
        "geometry": {
          "type": "Point",
          "coordinates": [
            53.859336,
            8.6879057
          ]
        }
      },
      {
        "kz": "D",
        "name": "Düsseldorf",
        "geometry": {
          "type": "Point",
          "coordinates": [
            51.2277411,
            6.7734556
          ]
        }
      },
      {
        "kz": "DA",
        "name": "Darmstadt",
        "geometry": {
          "type": "Point",
          "coordinates": [
            49.8728253,
            8.6511929
          ]
        }
      },
      {
        "kz": "DEL",
        "name": "Delmenhorst",
        "geometry": {
          "type": "Point",
          "coordinates": [
            53.0521886,
            8.6355932
          ]
        }
      },
      {
        "kz": "DD",
        "name": "Dresden",
        "geometry": {
          "type": "Point",
          "coordinates": [
            51.0504088,
            13.7372621
          ]
        }
      },
      {
        "kz": "DH",
        "name": "Diepholz",
        "geometry": {
          "type": "Point",
          "coordinates": [
            52.6056456,
            8.3707878
          ]
        }
      },
      {
        "kz": "DIL",
        "name": "Lahn-Dill-Kreis",
        "geometry": {
          "type": "Point",
          "coordinates": [
            50.67097,
            8.358588
          ]
        }
      },
      {
        "kz": "DIN",
        "name": "Dinslaken",
        "geometry": {
          "type": "Point",
          "coordinates": [
            51.5674264,
            6.747534
          ]
        }
      },
      {
        "kz": "DON",
        "name": "Donauwörth",
        "geometry": {
          "type": "Point",
          "coordinates": [
            48.7185826,
            10.7778041
          ]
        }
      },
      {
        "kz": "DO",
        "name": "Dortmund",
        "geometry": {
          "type": "Point",
          "coordinates": [
            51.5072,
            7.49142
          ]
        }
      },
      {
        "kz": "DT",
        "name": "Detmold",
        "geometry": {
          "type": "Point",
          "coordinates": [
            51.9384783,
            8.868638
          ]
        }
      },
      {
        "kz": "DU",
        "name": "Duisburg",
        "geometry": {
          "type": "Point",
          "coordinates": [
            51.4344079,
            6.7623293
          ]
        }
      },
      {
        "kz": "E",
        "name": "Essen",
        "geometry": {
          "type": "Point",
          "coordinates": [
            51.4556432,
            7.0115552
          ]
        }
      },
      {
        "kz": "EL",
        "name": "Lingen",
        "geometry": {
          "type": "Point",
          "coordinates": [
            52.52306,
            7.323279
          ]
        }
      },
      {
        "kz": "EM",
        "name": "Emmerdingen",
        "geometry": {
          "type": "Point",
          "coordinates": [
            48.1170918,
            7.8539047
          ]
        }
      },
      {
        "kz": "EMS",
        "name": "Bad Ems",
        "geometry": {
          "type": "Point",
          "coordinates": [
            50.3340619,
            7.71924
          ]
        }
      },
      {
        "kz": "EN",
        "name": "Ennepe-Ruhr-Kreis",
        "geometry": {
          "type": "Point",
          "coordinates": [
            51.3001092,
            7.3613429
          ]
        }
      },
      {
        "kz": "ERZ",
        "name": "Erzgebirgskreis",
        "geometry": {
          "type": "Point",
          "coordinates": [
            50.731240,
            12.891083
          ]
        }
      },
      {
        "kz": "EU",
        "name": "Euskirchen",
        "geometry": {
          "type": "Point",
          "coordinates": [
            50.6574392,
            6.7899945
          ]
        }
      },
      {
        "kz": "F",
        "name": "Frankfurt am Main",
        "geometry": {
          "type": "Point",
          "coordinates": [
            50.1109221,
            8.6821267
          ]
        }
      },
      {
        "kz": "FB",
        "name": "Friedberg / Ts.",
        "geometry": {
          "type": "Point",
          "coordinates": [
            50.333333,
            8.75
          ]
        }
      },
      {
        "kz": "FD",
        "name": "Fulda",
        "geometry": {
          "type": "Point",
          "coordinates": [
            50.5558095,
            9.6808449
          ]
        }
      },
      {
        "kz": "FRI",
        "name": "Friesland",
        "geometry": {
          "type": "Point",
          "coordinates": [
            53.596679,
            7.90034
          ]
        }
      },
      {
        "kz": "GAN",
        "name": "Bad Gandersheim",
        "geometry": {
          "type": "Point",
          "coordinates": [
            51.8717977,
            10.023903
          ]
        }
      },
      {
        "kz": "GE",
        "name": "Gelsenkirchen",
        "geometry": {
          "type": "Point",
          "coordinates": [
            51.517744,
            7.0857172
          ]
        }
      },
      {
        "kz": "GER",
        "name": "Germersheim",
        "geometry": {
          "type": "Point",
          "coordinates": [
            49.2140244,
            8.3668146
          ]
        }
      },
      {
        "kz": "GF",
        "name": "Gifhorn",
        "geometry": {
          "type": "Point",
          "coordinates": [
            52.4809091,
            10.5507829
          ]
        }
      },
      {
        "kz": "GG",
        "name": "Groß-Gerau",
        "geometry": {
          "type": "Point",
          "coordinates": [
            49.9203655,
            8.4847038
          ]
        }
      },
      {
        "kz": "GI",
        "name": "Gießen",
        "geometry": {
          "type": "Point",
          "coordinates": [
            50.5840512,
            8.6784031
          ]
        }
      },
      {
        "kz": "GK",
        "name": "Geilenkirchen",
        "geometry": {
          "type": "Point",
          "coordinates": [
            50.967168,
            6.1174584
          ]
        }
      },
      {
        "kz": "GL",
        "name": "Bergisch Gladbach",
        "geometry": {
          "type": "Point",
          "coordinates": [
            50.9923091,
            7.1286213
          ]
        }
      },
      {
        "kz": "GLA",
        "name": "Gladbeck",
        "geometry": {
          "type": "Point",
          "coordinates": [
            51.5706624,
            6.9853921
          ]
        }
      },
      {
        "kz": "GM",
        "name": "Gummersbach",
        "geometry": {
          "type": "Point",
          "coordinates": [
            51.0266668,
            7.569283
          ]
        }
      },
      {
        "kz": "GOA",
        "name": "Sankt Goar",
        "geometry": {
          "type": "Point",
          "coordinates": [
            50.1512782,
            7.7131202
          ]
        }
      },
      {
        "kz": "GP",
        "name": "Göppingen",
        "geometry": {
          "type": "Point",
          "coordinates": [
            48.7054382,
            9.6512491
          ]
        }
      },
      {
        "kz": "GS",
        "name": "Goslar",
        "geometry": {
          "type": "Point",
          "coordinates": [
            51.9059531,
            10.4289963
          ]
        }
      },
      {
        "kz": "GT",
        "name": "Gütersloh",
        "geometry": {
          "type": "Point",
          "coordinates": [
            51.9032375,
            8.3857535
          ]
        }
      },
      {
        "kz": "GÖ",
        "name": "Göttingen",
        "geometry": {
          "type": "Point",
          "coordinates": [
            51.5412804,
            9.9158035
          ]
        }
      },
      {
        "kz": "H",
        "name": "Hannover",
        "geometry": {
          "type": "Point",
          "coordinates": [
            52.3758916,
            9.7320104
          ]
        }
      },
      {
        "kz": "HA",
        "name": "Hagen",
        "geometry": {
          "type": "Point",
          "coordinates": [
            51.3670777,
            7.4632841
          ]
        }
      },
      {
        "kz": "HAL",
        "name": "Halle",
        "geometry": {
          "type": "Point",
          "coordinates": [
            51.4969802,
            11.9688029
          ]
        }
      },
      {
        "kz": "HAM",
        "name": "Hamm",
        "geometry": {
          "type": "Point",
          "coordinates": [
            51.6738583,
            7.8159816
          ]
        }
      },
      {
        "kz": "HB",
        "name": "Bremen",
        "geometry": {
          "type": "Point",
          "coordinates": [
            53.0792962,
            8.8016937
          ]
        }
      },
      {
        "kz": "HD",
        "name": "Heidelberg",
        "geometry": {
          "type": "Point",
          "coordinates": [
            49.3987524,
            8.6724335
          ]
        }
      },
      {
        "kz": "HER",
        "name": "Herne",
        "geometry": {
          "type": "Point",
          "coordinates": [
            51.5368948,
            7.2009147
          ]
        }
      },
      {
        "kz": "HF",
        "name": "Herford",
        "geometry": {
          "type": "Point",
          "coordinates": [
            52.1178305,
            8.6793998
          ]
        }
      },
      {
        "kz": "HG",
        "name": "Bad Homburg v.d. Höhe",
        "geometry": {
          "type": "Point",
          "coordinates": [
            50.226831,
            8.618162
          ]
        }
      },
      {
        "kz": "HGN",
        "name": "Hagenow",
        "geometry": {
          "type": "Point",
          "coordinates": [
            53.4265906,
            11.1955099
          ]
        }
      },
      {
        "kz": "HH",
        "name": "Hamburg",
        "geometry": {
          "type": "Point",
          "coordinates": [
            53.551085,
            9.993682
          ]
        }
      },
      {
        "kz": "HK",
        "name": "Heidekreis",
        "geometry": {
          "type": "Point",
          "coordinates": [
            53.066498,
            9.882525
          ]
        }
      },
      {
        "kz": "HL",
        "name": "Lübeck",
        "geometry": {
          "type": "Point",
          "coordinates": [
            53.8654673,
            10.6865593
          ]
        }
      },
      {
        "kz": "HM",
        "name": "Hameln",
        "geometry": {
          "type": "Point",
          "coordinates": [
            52.1082726,
            9.362171
          ]
        }
      },
      {
        "kz": "HMÜ",
        "name": "Hannover-Münden",
        "geometry": {
          "type": "Point",
          "coordinates": [
            51.419285,
            9.6557588
          ]
        }
      },
      {
        "kz": "HOL",
        "name": "Holzminden",
        "geometry": {
          "type": "Point",
          "coordinates": [
            51.8238111,
            9.4558926
          ]
        }
      },
      {
        "kz": "HOT",
        "name": "Hohenstein-Ernstthal",
        "geometry": {
          "type": "Point",
          "coordinates": [
            50.8009829,
            12.7132681
          ]
        }
      },
      {
        "kz": "HP",
        "name": "Heppenheim",
        "geometry": {
          "type": "Point",
          "coordinates": [
            49.643056,
            8.638889
          ]
        }
      },
      {
        "kz": "HS",
        "name": "Heinsberg",
        "geometry": {
          "type": "Point",
          "coordinates": [
            51.0600381,
            6.1183729
          ]
        }
      },
      {
        "kz": "HSK",
        "name": "Hochsauerlandkreis",
        "geometry": {
          "type": "Point",
          "coordinates": [
            51.2609835,
            8.04754842902168
          ]
        }
      },
      {
        "kz": "HU",
        "name": "Hanau",
        "geometry": {
          "type": "Point",
          "coordinates": [
            50.1264123,
            8.9283105
          ]
        }
      },
      {
        "kz": "HX",
        "name": "Höxter",
        "geometry": {
          "type": "Point",
          "coordinates": [
            51.7774678,
            9.3771214
          ]
        }
      },
      {
        "kz": "K",
        "name": "Köln",
        "geometry": {
          "type": "Point",
          "coordinates": [
            50.937193,
            6.961422
          ]
        }
      },
      {
        "kz": "KA",
        "name": "Karlsruhe",
        "geometry": {
          "type": "Point",
          "coordinates": [
            49.0068901,
            8.4036527
          ]
        }
      },
      {
        "kz": "KEH",
        "name": "Kelheim",
        "geometry": {
          "type": "Point",
          "coordinates": [
            48.9184118,
            11.886563
          ]
        }
      },
      {
        "kz": "KK",
        "name": "Kempen-Krefeld",
        "geometry": {
          "type": "Point",
          "coordinates": [
            51.3649942,
            6.4205309
          ]
        }
      },
      {
        "kz": "KS",
        "name": "Kassel",
        "geometry": {
          "type": "Point",
          "coordinates": [
            51.3127114,
            9.4797461
          ]
        }
      },
      {
        "kz": "KW",
        "name": "Königs Wusterhausen",
        "geometry": {
          "type": "Point",
          "coordinates": [
            52.2958906,
            13.6228382
          ]
        }
      },
      {
        "kz": "L",
        "name": "Leipzig",
        "geometry": {
          "type": "Point",
          "coordinates": [
            51.3396955,
            12.3730747
          ]
        }
      },
      {
        "kz": "LDK",
        "name": "Lahn-Dill-Kreis",
        "geometry": {
          "type": "Point",
          "coordinates": [
            50.67097,
            8.358588
          ]
        }
      },
      {
        "kz": "LER",
        "name": "Leer",
        "geometry": {
          "type": "Point",
          "coordinates": [
            53.235657,
            7.4679018
          ]
        }
      },
      {
        "kz": "LEV",
        "name": "Leverkusen",
        "geometry": {
          "type": "Point",
          "coordinates": [
            51.0459248,
            7.0192196
          ]
        }
      },
      {
        "kz": "LH",
        "name": "Lüdinghausen",
        "geometry": {
          "type": "Point",
          "coordinates": [
            51.768214,
            7.4465617
          ]
        }
      },
      {
        "kz": "LIP",
        "name": "Lippe",
        "geometry": {
          "type": "Point",
          "coordinates": [
            51.975903,
            8.986528
          ]
        }
      },
      {
        "kz": "LL",
        "name": "Landsberg am Lech",
        "geometry": {
          "type": "Point",
          "coordinates": [
            48.050783,
            10.8703515
          ]
        }
      },
      {
        "kz": "LM",
        "name": "Limburg an der Lahn",
        "geometry": {
          "type": "Point",
          "coordinates": [
            50.4859255,
            8.2722569
          ]
        }
      },
      {
        "kz": "LÖ",
        "name": "Lörrach",
        "geometry": {
          "type": "Point",
          "coordinates": [
            47.6169191,
            7.6709248
          ]
        }
      },
      {
        "kz": "LÖB",
        "name": "Löbau",
        "geometry": {
          "type": "Point",
          "coordinates": [
            51.0962292,
            14.6701781
          ]
        }
      },
      {
        "kz": "LOS",
        "name": "Oder-Spree",
        "geometry": {
          "type": "Point",
          "coordinates": [
            52.360438,
            14.059511
          ]
        }
      },
      {
        "kz": "LP",
        "name": "Lippstadt",
        "geometry": {
          "type": "Point",
          "coordinates": [
            51.6712278,
            8.3406481
          ]
        }
      },
      {
        "kz": "LU",
        "name": "Ludwigshafen am Rhein",
        "geometry": {
          "type": "Point",
          "coordinates": [
            49.47741,
            8.44518
          ]
        }
      },
      {
        "kz": "LÜN",
        "name": "Lünen",
        "geometry": {
          "type": "Point",
          "coordinates": [
            51.6104829,
            7.5285074
          ]
        }
      },
      {
        "kz": "MD",
        "name": "Magdeburg",
        "geometry": {
          "type": "Point",
          "coordinates": [
            52.1205333,
            11.6276237
          ]
        }
      },
      {
        "kz": "ME",
        "name": "Mettmann",
        "geometry": {
          "type": "Point",
          "coordinates": [
            51.2506663,
            6.9740265
          ]
        }
      },
      {
        "kz": "MI (AT)",
        "name": "Mistelbach",
        "geometry": {
          "type": "Point",
          "coordinates": [
            48.5667,
            16.5667
          ]
        }
      },
      {
        "kz": "MK",
        "name": "Märkischer Kreis",
        "geometry": {
          "type": "Point",
          "coordinates": [
            51.243977,
            7.755536
          ]
        }
      },
      {
        "kz": "ML",
        "name": "Mansfeld-Südharz",
        "geometry": {
          "type": "Point",
          "coordinates": [
            51.550941,
            11.407180
          ]
        }
      },
      {
        "kz": "MO",
        "name": "Moers",
        "geometry": {
          "type": "Point",
          "coordinates": [
            51.4516041,
            6.6408148
          ]
        }
      },
      {
        "kz": "MON",
        "name": "Monschau",
        "geometry": {
          "type": "Point",
          "coordinates": [
            50.5563349,
            6.2426261
          ]
        }
      },
      {
        "kz": "MR",
        "name": "Marburg",
        "geometry": {
          "type": "Point",
          "coordinates": [
            50.8021728,
            8.7667933
          ]
        }
      },
      {
        "kz": "MS",
        "name": "Münster",
        "geometry": {
          "type": "Point",
          "coordinates": [
            51.9606649,
            7.6261347
          ]
        }
      },
      {
        "kz": "MSH",
        "name": "Mansfeld-Südharz",
        "geometry": {
          "type": "Point",
          "coordinates": [
            51.550941,
            11.407180
          ]
        }
      },
      {
        "kz": "MTK",
        "name": "Main-Taunus-Kreis",
        "geometry": {
          "type": "Point",
          "coordinates": [
            50.133333,
            8.533333
          ]
        }
      },
      {
        "kz": "MZ",
        "name": "Mainz",
        "geometry": {
          "type": "Point",
          "coordinates": [
            49.9928617,
            8.2472526
          ]
        }
      },
      {
        "kz": "MZG",
        "name": "Merzig",
        "geometry": {
          "type": "Point",
          "coordinates": [
            49.457240,
            6.686688
          ]
        }
      },
      {
        "kz": "NES",
        "name": "Rhön-Grabfeld",
        "geometry": {
          "type": "Point",
          "coordinates": [
            50.355694,
            10.206667
          ]
        }
      },
      {
        "kz": "NF",
        "name": "Nordfriesland",
        "geometry": {
          "type": "Point",
          "coordinates": [
            54.676022,
            8.933632
          ]
        }
      },
      {
        "kz": "NI",
        "name": "Nienburg (Weser)",
        "geometry": {
          "type": "Point",
          "coordinates": [
            52.6380924,
            9.2084155
          ]
        }
      },
      {
        "kz": "NL (Niederlande)",
        "name": "Keine Zuordnung durch Kennzeichen möglich",
        "geometry": {
          "type": "Point",
          "coordinates": [
            52.132633,
            5.291266
          ]
        }
      },
      {
        "kz": "NR",
        "name": "Neuwied",
        "geometry": {
          "type": "Point",
          "coordinates": [
            50.4361866,
            7.4664546
          ]
        }
      },
      {
        "kz": "OA",
        "name": "Oberallgäu",
        "geometry": {
          "type": "Point",
          "coordinates": [
            47.539197,
            10.284402
          ]
        }
      },
      {
        "kz": "OAL",
        "name": "Ostallgäu",
        "geometry": {
          "type": "Point",
          "coordinates": [
            47.786013,
            10.630515
          ]
        }
      },
      {
        "kz": "OB",
        "name": "Oberhausen",
        "geometry": {
          "type": "Point",
          "coordinates": [
            51.4963341,
            6.8637765
          ]
        }
      },
      {
        "kz": "OF",
        "name": "Offenbach am Main",
        "geometry": {
          "type": "Point",
          "coordinates": [
            50.0956362,
            8.7760843
          ]
        }
      },
      {
        "kz": "OL",
        "name": "Oldenburg",
        "geometry": {
          "type": "Point",
          "coordinates": [
            53.1434501,
            8.2145521
          ]
        }
      },
      {
        "kz": "OP",
        "name": "Opladen",
        "geometry": {
          "type": "Point",
          "coordinates": [
            51.0459248,
            7.0192196
          ]
        }
      },
      {
        "kz": "OS",
        "name": "Osnabrück",
        "geometry": {
          "type": "Point",
          "coordinates": [
            52.2799112,
            8.0471788
          ]
        }
      },
      {
        "kz": "PB",
        "name": "Paderborn",
        "geometry": {
          "type": "Point",
          "coordinates": [
            51.7189205,
            8.7575093
          ]
        }
      },
      {
        "kz": "PI",
        "name": "Pinneberg",
        "geometry": {
          "type": "Point",
          "coordinates": [
            53.6545225,
            9.7938212
          ]
        }
      },
      {
        "kz": "PLÖ",
        "name": "Plön",
        "geometry": {
          "type": "Point",
          "coordinates": [
            54.1613302,
            10.4259498
          ]
        }
      },
      {
        "kz": "PS",
        "name": "Pirmasens",
        "geometry": {
          "type": "Point",
          "coordinates": [
            49.201555,
            7.6002161
          ]
        }
      },
      {
        "kz": "RA",
        "name": "Rastatt",
        "geometry": {
          "type": "Point",
          "coordinates": [
            48.8591174,
            8.2059096
          ]
        }
      },
      {
        "kz": "RD",
        "name": "Rendsburg",
        "geometry": {
          "type": "Point",
          "coordinates": [
            54.295275,
            9.846645
          ]
        }
      },
      {
        "kz": "RE",
        "name": "Recklinghausen",
        "geometry": {
          "type": "Point",
          "coordinates": [
            51.6140649,
            7.1979453
          ]
        }
      },
      {
        "kz": "RH",
        "name": "Roth",
        "geometry": {
          "type": "Point",
          "coordinates": [
            49.252047,
            11.091189
          ]
        }
      },
      {
        "kz": "RI",
        "name": "Rinteln",
        "geometry": {
          "type": "Point",
          "coordinates": [
            52.2020461,
            9.0759703
          ]
        }
      },
      {
        "kz": "RO",
        "name": "Rosenheim",
        "geometry": {
          "type": "Point",
          "coordinates": [
            47.8571272,
            12.1181047
          ]
        }
      },
      {
        "kz": "ROD",
        "name": "Roding",
        "geometry": {
          "type": "Point",
          "coordinates": [
            49.1941496,
            12.5222943
          ]
        }
      },
      {
        "kz": "ROF",
        "name": "Hersfeld-Rotenburg",
        "geometry": {
          "type": "Point",
          "coordinates": [
            50.898552,
            9.739876
          ]
        }
      },
      {
        "kz": "ROK",
        "name": "Rockenhausen",
        "geometry": {
          "type": "Point",
          "coordinates": [
            49.6311747,
            7.8215535
          ]
        }
      },
      {
        "kz": "RS",
        "name": "Remscheid",
        "geometry": {
          "type": "Point",
          "coordinates": [
            51.1787418,
            7.1896962
          ]
        }
      },
      {
        "kz": "RW",
        "name": "Rottweil",
        "geometry": {
          "type": "Point",
          "coordinates": [
            48.1610687,
            8.6316219
          ]
        }
      },
      {
        "kz": "S",
        "name": "Stuttgart",
        "geometry": {
          "type": "Point",
          "coordinates": [
            48.7758459,
            9.1829321
          ]
        }
      },
      {
        "kz": "SEE",
        "name": "Seelow",
        "geometry": {
          "type": "Point",
          "coordinates": [
            52.5315702,
            14.3798314
          ]
        }
      },
      {
        "kz": "SG (CH)",
        "name": "St. Gallen",
        "geometry": {
          "type": "Point",
          "coordinates": [
            47.4244818,
            9.3767173
          ]
        }
      },
      {
        "kz": "SHG",
        "name": "Schaumburg",
        "geometry": {
          "type": "Point",
          "coordinates": [
            52.190555555556,
            9.0813888888889
          ]
        }
      },
      {
        "kz": "SI",
        "name": "Siegen",
        "geometry": {
          "type": "Point",
          "coordinates": [
            50.8838492,
            8.0209591
          ]
        }
      },
      {
        "kz": "SIM",
        "name": "Simmern",
        "geometry": {
          "type": "Point",
          "coordinates": [
            49.983,
            7.517
          ]
        }
      },
      {
        "kz": "SL",
        "name": "Schleswig-Flensburg",
        "geometry": {
          "type": "Point",
          "coordinates": [
            54.629896,
            9.534861
          ]
        }
      },
      {
        "kz": "SLS",
        "name": "Saarlouis",
        "geometry": {
          "type": "Point",
          "coordinates": [
            49.3134606,
            6.7522865
          ]
        }
      },
      {
        "kz": "SN",
        "name": "Schwerin",
        "geometry": {
          "type": "Point",
          "coordinates": [
            53.6355022,
            11.4012499
          ]
        }
      },
      {
        "kz": "SO",
        "name": "Soest",
        "geometry": {
          "type": "Point",
          "coordinates": [
            51.5711476,
            8.105754
          ]
        }
      },
      {
        "kz": "SU",
        "name": "Siegburg",
        "geometry": {
          "type": "Point",
          "coordinates": [
            50.7998473,
            7.2074514
          ]
        }
      },
      {
        "kz": "STA",
        "name": "Starnberg",
        "geometry": {
          "type": "Point",
          "coordinates": [
            47.9999615,
            11.3390089
          ]
        }
      },
      {
        "kz": "TDO",
        "name": "Torgau",
        "geometry": {
          "type": "Point",
          "coordinates": [
            51.557934,
            12.991583
          ]
        }
      },
      {
        "kz": "TE",
        "name": "Tecklenburg",
        "geometry": {
          "type": "Point",
          "coordinates": [
            52.2203039,
            7.8123633
          ]
        }
      },
      {
        "kz": "TF",
        "name": "Teltow-Fläming",
        "geometry": {
          "type": "Point",
          "coordinates": [
            52.036416,
            13.292044
          ]
        }
      },
      {
        "kz": "UFF",
        "name": "Uffenheim",
        "geometry": {
          "type": "Point",
          "coordinates": [
            49.5449973,
            10.2338007
          ]
        }
      },
      {
        "kz": "UH",
        "name": "Unstrut-Hainich",
        "geometry": {
          "type": "Point",
          "coordinates": [
            51.19,
            10.55
          ]
        }
      },
      {
        "kz": "UN",
        "name": "Unna",
        "geometry": {
          "type": "Point",
          "coordinates": [
            51.5426349,
            7.6853114
          ]
        }
      },
      {
        "kz": "V",
        "name": "Vogtland-Kreis",
        "geometry": {
          "type": "Point",
          "coordinates": [
            50.616667,
            12.3
          ]
        }
      },
      {
        "kz": "VAI",
        "name": "Vaihingen an der Enz",
        "geometry": {
          "type": "Point",
          "coordinates": [
            48.9334357,
            8.961208
          ]
        }
      },
      {
        "kz": "VB",
        "name": "Vogelsberg-Kreis",
        "geometry": {
          "type": "Point",
          "coordinates": [
            50.640763888889,
            9.3997916666667
          ]
        }
      },
      {
        "kz": "VEC",
        "name": "Vechta",
        "geometry": {
          "type": "Point",
          "coordinates": [
            52.7292252,
            8.2838761
          ]
        }
      },
      {
        "kz": "VIE",
        "name": "Viersen",
        "geometry": {
          "type": "Point",
          "coordinates": [
            51.2554987,
            6.3965235
          ]
        }
      },
      {
        "kz": "VIT",
        "name": "Viechtach",
        "geometry": {
          "type": "Point",
          "coordinates": [
            49.0794562,
            12.8831956
          ]
        }
      },
      {
        "kz": "W",
        "name": "Wuppertal",
        "geometry": {
          "type": "Point",
          "coordinates": [
            51.2562128,
            7.1507636
          ]
        }
      },
      {
        "kz": "W (AT)",
        "name": "Wien",
        "geometry": {
          "type": "Point",
          "coordinates": [
            48.208174,
            16.373819
          ]
        }
      },
      {
        "kz": "WAF",
        "name": "Warendorf",
        "geometry": {
          "type": "Point",
          "coordinates": [
            51.9538685,
            7.9908987
          ]
        }
      },
      {
        "kz": "WAN",
        "name": "Wanne-Eickel",
        "geometry": {
          "type": "Point",
          "coordinates": [
            51.5368948,
            7.2009147
          ]
        }
      },
      {
        "kz": "WEL",
        "name": "Limburg-Weilburg",
        "geometry": {
          "type": "Point",
          "coordinates": [
            50.4859255,
            8.2722569
          ]
        }
      },
      {
        "kz": "WF",
        "name": "Wolfenbüttel",
        "geometry": {
          "type": "Point",
          "coordinates": [
            52.1640413,
            10.5408484
          ]
        }
      },
      {
        "kz": "WIT",
        "name": "Witten",
        "geometry": {
          "type": "Point",
          "coordinates": [
            51.4438926,
            7.353197
          ]
        }
      },
      {
        "kz": "WND",
        "name": "St. Wendel",
        "geometry": {
          "type": "Point",
          "coordinates": [
            49.4677707,
            7.1690625
          ]
        }
      },
      {
        "kz": "WOB",
        "name": "Wolfsburg",
        "geometry": {
          "type": "Point",
          "coordinates": [
            52.4226503,
            10.7865461
          ]
        }
      },
      {
        "kz": "WOH",
        "name": "Wolfhagen",
        "geometry": {
          "type": "Point",
          "coordinates": [
            51.3264673,
            9.1710827
          ]
        }
      },
      {
        "kz": "WT",
        "name": "Waldshut-Tiengen",
        "geometry": {
          "type": "Point",
          "coordinates": [
            47.6327253,
            8.2719155
          ]
        }
      },
      {
        "kz": "WUG",
        "name": "Weißenburg-Gunzenhausen",
        "geometry": {
          "type": "Point",
          "coordinates": [
            49.052484,
            10.906240
          ]
        }
      },
      {
        "kz": "WW",
        "name": "Westerwaldkreis",
        "geometry": {
          "type": "Point",
          "coordinates": [
            50.687222,
            7.645556
          ]
        }
      }
    ]
  }